{
  "branches": [
    {
      "id": 1,
      "name": "강남점",
      "address": "서울특별시 강남구 테헤란로 123",
      "phone": "02-1234-5678",
      "hours": "평일 9:00-18:00, 토요일 9:00-15:00",
      "image": "/uploads/default-branch.jpg",
      "description": "강남 최고의 금 매입 전문점입니다. 공정한 시세와 친절한 서비스로 고객만족을 최우선으로 합니다.",
      "features": [
        "24K 금 전문 매입",
        "실시간 시세 적용",
        "당일 현금 지급",
        "무료 감정"
      ],
      "lat": 37.5012767,
      "lng": 127.0396417
    },
    {
      "id": 2,
      "name": "홍대점",
      "address": "서울특별시 마포구 홍익로 456",
      "phone": "02-2345-6789",
      "hours": "평일 10:00-19:00, 토요일 10:00-16:00",
      "image": "/uploads/default-branch.jpg",
      "description": "홍대 젊은 거리에 위치한 신뢰할 수 있는 금 매입 전문점입니다.",
      "features": [
        "금 반지/목걸이 전문",
        "학생 할인 혜택",
        "온라인 시세 확인",
        "안전한 거래"
      ],
      "lat": 37.5563059,
      "lng": 126.9220571
    },
    {
      "id": 3,
      "name": "부산금이빨",
      "address": "부산광역시 명지국제 8로 30",
      "phone": "010-2584-5674",
      "hours": "평일 9:00-20:00, 토요일 9:00-18:00",
      "image": "/uploads/1751849959138-983845141.png",
      "description": "부산 최고의 금 매입 전문점으로 빠른 서비스와 정확한 감정을 제공합니다.",
      "features": [
        "금 전문 매입",
        "빠른 현금 지급",
        "정확한 감정",
        "무료 출장 서비스"
      ],
      "lat": 35.1000000,
      "lng": 128.8500000
    },
    {
      "id": 4,
      "name": "인천계양점",
      "address": "인천광역시 계양구 계양대로 789",
      "phone": "032-3456-7890",
      "hours": "평일 9:00-18:00, 토요일 9:00-15:00",
      "image": "/uploads/default-branch.jpg",
      "description": "인천 계양구의 믿을 수 있는 금 매입 전문점입니다.",
      "features": [
        "금 반지/목걸이 전문",
        "실시간 시세 확인",
        "당일 현금 지급",
        "무료 감정"
      ],
      "lat": 37.5376777,
      "lng": 126.7348616
    },
    {
      "id": 5,
      "name": "대전둔산점",
      "address": "대전광역시 서구 둔산동 1234",
      "phone": "042-4567-8901",
      "hours": "평일 9:00-18:00, 토요일 9:00-15:00",
      "image": "/uploads/default-branch.jpg",
      "description": "대전 둔산동 최고의 금 매입 전문점입니다.",
      "features": [
        "24K 금 전문 매입",
        "실시간 시세 적용",
        "당일 현금 지급",
        "무료 감정"
      ],
      "lat": 36.3504119,
      "lng": 127.3845475
    },
    {
      "id": 6,
      "name": "광주송정점",
      "address": "광주광역시 광산구 송정동 567",
      "phone": "062-5678-9012",
      "hours": "평일 9:00-18:00, 토요일 9:00-15:00",
      "image": "/uploads/default-branch.jpg",
      "description": "광주 송정동의 신뢰할 수 있는 금 매입 전문점입니다.",
      "features": [
        "금 반지/목걸이 전문",
        "학생 할인 혜택",
        "온라인 시세 확인",
        "안전한 거래"
      ],
      "lat": 35.1379222,
      "lng": 126.8000000
    },
    {
      "id": 7,
      "name": "수원영통점",
      "address": "경기도 수원시 영통구 영통로 890",
      "phone": "031-6789-0123",
      "hours": "평일 9:00-18:00, 토요일 9:00-15:00",
      "image": "/uploads/default-branch.jpg",
      "description": "수원 영통구 최고의 금 매입 전문점입니다.",
      "features": [
        "24K 금 전문 매입",
        "실시간 시세 적용",
        "당일 현금 지급",
        "무료 감정"
      ],
      "lat": 37.2636063,
      "lng": 127.0286690
    },
    {
      "id": 8,
      "name": "안산단원점",
      "address": "경기도 안산시 단원구 중앙대로 234",
      "phone": "031-7890-1234",
      "hours": "평일 9:00-18:00, 토요일 9:00-15:00",
      "image": "/uploads/default-branch.jpg",
      "description": "안산 단원구의 믿을 수 있는 금 매입 전문점입니다.",
      "features": [
        "금 반지/목걸이 전문",
        "실시간 시세 확인",
        "당일 현금 지급",
        "무료 감정"
      ],
      "lat": 37.3236479,
      "lng": 126.8219345
    }
  ]
}